[
 {
  "name": "Callejón 57 Comics",
  "kind": "IND",
  "chain": null,
  "ccaa": "Andalucía",
  "province": "Almería",
  "address": "C/ Sevilla 57, 04700 El Ejido (Almería)",
  "phone": null,
  "web": null,
  "email": null,
  "notes": null,
  "lat": 36.771148,
  "lon": -2.81625,
  "geo_quality": "address"
 },
 {
  "name": "Gamevip",
  "kind": "IND",
  "chain": null,
  "ccaa": "Andalucía",
  "province": "Almería",
  "address": "Av. de la Estación 30, 04005 Almería",
  "phone": "ver Cylex",
  "web": null,
  "email": null,
  "notes": "Tienda de juegos y wargames",
  "lat": 36.837365,
  "lon": -2.458353,
  "geo_quality": "address"
 },
 {
  "name": "Hobbyzona",
  "kind": "IND",
  "chain": null,
  "ccaa": "Andalucía",
  "province": "Almería",
  "address": "C/ San Leopoldo 4, 04740 Roquetas de Mar (Almería)",
  "phone": null,
  "web": null,
  "email": null,
  "notes": null,
  "lat": 36.763399,
  "lon": -2.612722,
  "geo_quality": "address"
 },
 {
  "name": "Amuleto",
  "kind": "IND",
  "chain": null,
  "ccaa": "Andalucía",
  "province": "Cádiz",
  "address": "C/ Buenaire 2, 11201 Algeciras",
  "phone": null,
  "web": null,
  "email": null,
  "notes": null,
  "lat": 36.130478,
  "lon": -5.443653,
  "geo_quality": "address"
 },
 {
  "name": "E-minis.net",
  "kind": "IND",
  "chain": null,
  "ccaa": "Andalucía",
  "province": "Cádiz",
  "address": "C/ Sol 51, 11300 La Línea de la Concepción",
  "phone": null,
  "web": null,
  "email": null,
  "notes": null,
  "lat": 36.163246,
  "lon": -5.355737,
  "geo_quality": "address"
 },
 {
  "name": "El Cristal Oscuro",
  "kind": "IND",
  "chain": null,
  "ccaa": "Andalucía",
  "province": "Cádiz",
  "address": "C/ Veronica 9, 11500 El Puerto de Santa María",
  "phone": null,
  "web": null,
  "email": null,
  "notes": null,
  "lat": 36.595576,
  "lon": -6.236227,
  "geo_quality": "address"
 },
 {
  "name": "La Quintaesencia",
  "kind": "IND",
  "chain": null,
  "ccaa": "Andalucía",
  "province": "Cádiz",
  "address": "C/ La Plaza 214, 11510 Puerto Real",
  "phone": null,
  "web": null,
  "email": null,
  "notes": null,
  "lat": 36.526988,
  "lon": -6.187016,
  "geo_quality": "address"
 },
 {
  "name": "Toy Soldier",
  "kind": "IND",
  "chain": null,
  "ccaa": "Andalucía",
  "province": "Cádiz",
  "address": "C/ Gral. García de la Herrán 4, 11100 San Fernando",
  "phone": null,
  "web": null,
  "email": null,
  "notes": null,
  "lat": 36.46844,
  "lon": -6.19982,
  "geo_quality": "address"
 },
 {
  "name": "Ala Delta",
  "kind": "IND",
  "chain": null,
  "ccaa": "Andalucía",
  "province": "Córdoba",
  "address": "C/ Diego Serrano 27, Córdoba",
  "phone": null,
  "web": null,
  "email": null,
  "notes": null,
  "lat": 37.884453,
  "lon": -4.792176,
  "geo_quality": "address"
 },
 {
  "name": "Estalia",
  "kind": "IND",
  "chain": null,
  "ccaa": "Andalucía",
  "province": "Córdoba",
  "address": "C/ Maestre Escuela 30, 14004 Córdoba",
  "phone": null,
  "web": null,
  "email": null,
  "notes": null,
  "lat": 37.9246,
  "lon": -4.794956,
  "geo_quality": "address"
 },
 {
  "name": "*",
  "kind": "GW",
  "chain": null,
  "ccaa": "Andalucía",
  "province": "Granada",
  "address": "*(no hay tienda oficial GW activa en Granada capital tras cierre)*",
  "phone": null,
  "web": null,
  "email": null,
  "notes": null,
  "lat": 39.326068,
  "lon": -4.837979,
  "geo_quality": "address"
 },
 {
  "name": "El Dragón Rojo",
  "kind": "IND",
  "chain": null,
  "ccaa": "Andalucía",
  "province": "Granada",
  "address": "Granada (consultar dirección actual)",
  "phone": null,
  "web": "eldragonrojo.es",
  "email": null,
  "notes": null,
  "lat": 37.173499,
  "lon": -3.599534,
  "geo_quality": "address"
 },
 {
  "name": "Frikland",
  "kind": "IND",
  "chain": null,
  "ccaa": "Andalucía",
  "province": "Granada",
  "address": "C/ Cabeza 2, 18800 Baza (Granada)",
  "phone": null,
  "web": null,
  "email": null,
  "notes": null,
  "lat": 37.489865,
  "lon": -2.77314,
  "geo_quality": "address"
 },
 {
  "name": "Goblin Trader Granada",
  "kind": "IND",
  "chain": "Goblin Trader",
  "ccaa": "Andalucía",
  "province": "Granada",
  "address": "C/ Dr. Juan Sánchez Cozar 5, Granada",
  "phone": "744 74 55 33",
  "web": null,
  "email": null,
  "notes": "Mesas de juego, torneos",
  "lat": 37.180131,
  "lon": -3.611407,
  "geo_quality": "address"
 },
 {
  "name": "Supermercado del Juguete",
  "kind": "IND",
  "chain": null,
  "ccaa": "Andalucía",
  "province": "Granada",
  "address": "C/ Gracia 12, 18002 Granada",
  "phone": null,
  "web": null,
  "email": null,
  "notes": null,
  "lat": 36.835739,
  "lon": -3.674064,
  "geo_quality": "address"
 },
 {
  "name": "War Lotus",
  "kind": "IND",
  "chain": null,
  "ccaa": "Andalucía",
  "province": "Granada",
  "address": "C/ Dr. Juan Sánchez Cozar 1, Local 3, Granada",
  "phone": null,
  "web": "warlotus.com",
  "email": null,
  "notes": null,
  "lat": 37.173499,
  "lon": -3.599534,
  "geo_quality": "city"
 },
 {
  "name": "Figuratevr",
  "kind": "IND",
  "chain": null,
  "ccaa": "Andalucía",
  "province": "Huelva",
  "address": "Alférez Durán nº 22, Palos de la Frontera (Huelva)",
  "phone": null,
  "web": null,
  "email": null,
  "notes": null,
  "lat": 37.222637,
  "lon": -6.889334,
  "geo_quality": "address"
 },
 {
  "name": "Centro Recreativo Millenium",
  "kind": "IND",
  "chain": null,
  "ccaa": "Andalucía",
  "province": "Jaén",
  "address": "C/ Dr. Eduardo Arroyo 10, Jaén",
  "phone": null,
  "web": null,
  "email": null,
  "notes": null,
  "lat": 37.768275,
  "lon": -3.790551,
  "geo_quality": "address"
 },
 {
  "name": "Vulcania Wargames",
  "kind": "IND",
  "chain": null,
  "ccaa": "Andalucía",
  "province": "Jaén",
  "address": "Av. Eduardo García Maroto 1 bajos, Jaén",
  "phone": null,
  "web": null,
  "email": null,
  "notes": null,
  "lat": 37.777091,
  "lon": -3.790144,
  "geo_quality": "address"
 },
 {
  "name": "Warhammer – Málaga",
  "kind": "GW",
  "chain": null,
  "ccaa": "Andalucía",
  "province": "Málaga",
  "address": "C/ Don Cristian 16, 29007 Málaga",
  "phone": "+34 952 42 96 48",
  "web": "games-workshop.com/Warhammer-Málaga",
  "email": "malaga@gwplc.com (patrón)",
  "notes": "Mesas de juego, eventos",
  "lat": 36.719223,
  "lon": -4.429836,
  "geo_quality": "address"
 },
 {
  "name": "Comic Stores Málaga",
  "kind": "IND",
  "chain": "Comic Stores",
  "ccaa": "Andalucía",
  "province": "Málaga",
  "address": "C/ Trinidad Grund 11, 29001 Málaga ",
  "phone": null,
  "web": null,
  "email": null,
  "notes": null,
  "lat": 36.717132,
  "lon": -4.421848,
  "geo_quality": "address"
 },
 {
  "name": "E-Minis Málaga",
  "kind": "IND",
  "chain": null,
  "ccaa": "Andalucía",
  "province": "Málaga",
  "address": "C/ Alfambra (Edif. Marte esq. Alago), Málaga",
  "phone": null,
  "web": null,
  "email": null,
  "notes": "Torneos competitivos",
  "lat": 36.710762,
  "lon": -4.441938,
  "geo_quality": "address"
 },
 {
  "name": "Shark Games",
  "kind": "IND",
  "chain": null,
  "ccaa": "Andalucía",
  "province": "Málaga",
  "address": "C/ Stendhal 5, Málaga",
  "phone": null,
  "web": null,
  "email": null,
  "notes": null,
  "lat": 36.717306,
  "lon": -4.455325,
  "geo_quality": "address"
 },
 {
  "name": "Warhammer – Sevilla",
  "kind": "GW",
  "chain": null,
  "ccaa": "Andalucía",
  "province": "Sevilla",
  "address": "Av. José Laguillo 12, 41018 Sevilla",
  "phone": "+34 954 90 06 24",
  "web": "games-workshop.com/Warhammer-Sevilla",
  "email": null,
  "notes": "Facebook: /WarhammerSevilla · Mesas de juego",
  "lat": 37.390744,
  "lon": -5.976581,
  "geo_quality": "address"
 },
 {
  "name": "Cards Comics",
  "kind": "IND",
  "chain": null,
  "ccaa": "Andalucía",
  "province": "Sevilla",
  "address": "C/ Sales y Ferré 13, 41003 Sevilla",
  "phone": null,
  "web": null,
  "email": null,
  "notes": null,
  "lat": 37.391069,
  "lon": -5.990097,
  "geo_quality": "address"
 },
 {
  "name": "Dosdieciseis",
  "kind": "IND",
  "chain": null,
  "ccaa": "Andalucía",
  "province": "Sevilla",
  "address": "C/ Arjona 5 Local 1, Sevilla",
  "phone": null,
  "web": null,
  "email": null,
  "notes": null,
  "lat": 37.38863,
  "lon": -5.99534,
  "geo_quality": "city"
 },
 {
  "name": "Empire Games",
  "kind": "IND",
  "chain": null,
  "ccaa": "Andalucía",
  "province": "Sevilla",
  "address": "C/ Chaves Nogales 20, Sevilla",
  "phone": null,
  "web": null,
  "email": null,
  "notes": null,
  "lat": 37.385123,
  "lon": -5.980487,
  "geo_quality": "address"
 },
 {
  "name": "Midgar",
  "kind": "IND",
  "chain": null,
  "ccaa": "Andalucía",
  "province": "Sevilla",
  "address": "Av. Andalucía 144, Dos Hermanas (Sevilla)",
  "phone": null,
  "web": null,
  "email": null,
  "notes": null,
  "lat": 37.272358,
  "lon": -5.920636,
  "geo_quality": "address"
 },
 {
  "name": "Warhammer – Zaragoza",
  "kind": "GW",
  "chain": null,
  "ccaa": "Aragón",
  "province": "Zaragoza",
  "address": "C/ Francisco de Vitoria 14, 50008 Zaragoza",
  "phone": "+34 976 23 60 16",
  "web": "games-workshop.com/Warhammer-Zaragoza",
  "email": null,
  "notes": "Facebook: /GWZaragoza · Mesas, torneos AoS/40k",
  "lat": 41.646407,
  "lon": -0.880821,
  "geo_quality": "address"
 },
 {
  "name": "DragonFly Comics",
  "kind": "IND",
  "chain": null,
  "ccaa": "Aragón",
  "province": "Zaragoza",
  "address": "C/ Julián Sanz Ibáñez 5, Zaragoza",
  "phone": null,
  "web": null,
  "email": null,
  "notes": null,
  "lat": 41.652592,
  "lon": -0.911281,
  "geo_quality": "address"
 },
 {
  "name": "El Coleccionista",
  "kind": "IND",
  "chain": null,
  "ccaa": "Aragón",
  "province": "Zaragoza",
  "address": "C.C. El Caracol Local 94, Pº Independencia 24, 50004 Zaragoza",
  "phone": null,
  "web": null,
  "email": null,
  "notes": null,
  "lat": 41.652393,
  "lon": -0.888655,
  "geo_quality": "address"
 },
 {
  "name": "Excelsior Comics",
  "kind": "IND",
  "chain": null,
  "ccaa": "Aragón",
  "province": "Zaragoza",
  "address": "C/ Carmen 19, 50005 Zaragoza",
  "phone": null,
  "web": null,
  "email": null,
  "notes": null,
  "lat": 41.646678,
  "lon": -0.892925,
  "geo_quality": "address"
 },
 {
  "name": "Goblin Trader Zaragoza",
  "kind": "IND",
  "chain": "Goblin Trader",
  "ccaa": "Aragón",
  "province": "Zaragoza",
  "address": "C/ José Pascasio Escoriaza 8, 50010 Zaragoza",
  "phone": "976 042 855",
  "web": null,
  "email": "gtszaragoza@goblintrader.es",
  "notes": "Mesas, torneos semanales",
  "lat": 41.649713,
  "lon": -0.896909,
  "geo_quality": "address"
 },
 {
  "name": "Mil Cómics",
  "kind": "IND",
  "chain": null,
  "ccaa": "Aragón",
  "province": "Zaragoza",
  "address": "C/ Miguel Servet 52 (Av. San José 15), Zaragoza",
  "phone": null,
  "web": "milcomics.com",
  "email": null,
  "notes": null,
  "lat": 41.646364,
  "lon": -0.872593,
  "geo_quality": "address"
 },
 {
  "name": "Alexandria",
  "kind": "IND",
  "chain": null,
  "ccaa": "Cantabria",
  "province": "Cantabria",
  "address": "C/ Raimundo Cicero Arteche 1, Torrelavega",
  "phone": null,
  "web": null,
  "email": null,
  "notes": null,
  "lat": 43.347766,
  "lon": -4.053342,
  "geo_quality": "address"
 },
 {
  "name": "Distrito Zero (Cabezón)",
  "kind": "IND",
  "chain": "Distrito Zero",
  "ccaa": "Cantabria",
  "province": "Cantabria",
  "address": "C/ Iglesia 1-3, 39500 Cabezón de la Sal",
  "phone": "618 54 83 81",
  "web": null,
  "email": "cabezon@distritozero.es",
  "notes": null,
  "lat": 43.307294,
  "lon": -4.236085,
  "geo_quality": "address"
 },
 {
  "name": "Distrito Zero (Santander)",
  "kind": "IND",
  "chain": "Distrito Zero",
  "ccaa": "Cantabria",
  "province": "Cantabria",
  "address": "C/ Alonso 15, 39010 Santander",
  "phone": "659 23 69 19",
  "web": null,
  "email": "info@distritozero.es",
  "notes": null,
  "lat": 43.460857,
  "lon": -3.824253,
  "geo_quality": "address"
 },
 {
  "name": "Distrito Zero (Torrelavega)",
  "kind": "IND",
  "chain": "Distrito Zero",
  "ccaa": "Cantabria",
  "province": "Cantabria",
  "address": "Av. Fernando Arce 4, 39300 Torrelavega",
  "phone": "613 17 71 25",
  "web": null,
  "email": "torrelavega@distritozero.es",
  "notes": null,
  "lat": 43.348947,
  "lon": -4.04897,
  "geo_quality": "address"
 },
 {
  "name": "Némesis",
  "kind": "IND",
  "chain": null,
  "ccaa": "Cantabria",
  "province": "Cantabria",
  "address": "C/ Gravina 9 bjo izq., Santander",
  "phone": null,
  "web": null,
  "email": null,
  "notes": null,
  "lat": 43.159566,
  "lon": -4.087838,
  "geo_quality": "city"
 },
 {
  "name": "Tiovivo",
  "kind": "IND",
  "chain": null,
  "ccaa": "Cantabria",
  "province": "Cantabria",
  "address": "C/ Rampa Sotileza 7, Santander",
  "phone": null,
  "web": null,
  "email": null,
  "notes": null,
  "lat": 43.159566,
  "lon": -4.087838,
  "geo_quality": "city"
 },
 {
  "name": "Avalon Burgos",
  "kind": "IND",
  "chain": null,
  "ccaa": "Castilla y León",
  "province": "Burgos",
  "address": "C/ San Julián 5, 09003 Burgos",
  "phone": null,
  "web": "avalonburgos.es",
  "email": null,
  "notes": "Cómics, wargames, Warhammer. Horario L-S 10:30-14 y 17-20",
  "lat": 42.336439,
  "lon": -3.698915,
  "geo_quality": "address"
 },
 {
  "name": "Raven Wargames",
  "kind": "IND",
  "chain": null,
  "ccaa": "Castilla y León",
  "province": "Burgos",
  "address": "Burgos",
  "phone": null,
  "web": null,
  "email": null,
  "notes": "FB: /RavenWargames",
  "lat": 42.34485,
  "lon": -3.681248,
  "geo_quality": "address"
 },
 {
  "name": "Copelen",
  "kind": "IND",
  "chain": null,
  "ccaa": "Castilla y León",
  "province": "León",
  "address": "C/ Batalla de Clavijo 39, León",
  "phone": null,
  "web": null,
  "email": null,
  "notes": null,
  "lat": 42.597021,
  "lon": -5.561465,
  "geo_quality": "address"
 },
 {
  "name": "Valhalla",
  "kind": "IND",
  "chain": null,
  "ccaa": "Castilla y León",
  "province": "Palencia",
  "address": "C/ Panaderas 9, Palencia",
  "phone": null,
  "web": null,
  "email": null,
  "notes": null,
  "lat": 42.007239,
  "lon": -4.532414,
  "geo_quality": "address"
 },
 {
  "name": "Model City",
  "kind": "IND",
  "chain": null,
  "ccaa": "Castilla y León",
  "province": "Salamanca",
  "address": "Av. María Auxiliadora 44, Salamanca",
  "phone": null,
  "web": null,
  "email": null,
  "notes": null,
  "lat": 40.971957,
  "lon": -5.657529,
  "geo_quality": "address"
 },
 {
  "name": "Shogun Salamanca",
  "kind": "IND",
  "chain": null,
  "ccaa": "Castilla y León",
  "province": "Salamanca",
  "address": "C/ Padilleros 11 bajo, Salamanca",
  "phone": null,
  "web": null,
  "email": null,
  "notes": null,
  "lat": 40.96846,
  "lon": -5.662315,
  "geo_quality": "address"
 },
 {
  "name": "MGK Soria",
  "kind": "IND",
  "chain": null,
  "ccaa": "Castilla y León",
  "province": "Soria",
  "address": "C/ Collado 3, Soria",
  "phone": null,
  "web": null,
  "email": null,
  "notes": null,
  "lat": 41.763722,
  "lon": -2.46486,
  "geo_quality": "address"
 },
 {
  "name": "Hokuto Comics",
  "kind": "IND",
  "chain": null,
  "ccaa": "Castilla y León",
  "province": "Valladolid",
  "address": "C/ Nicolás Salmerón 13, Valladolid. **Pucela Wargames** (club; FB /PucelaWargames)",
  "phone": null,
  "web": null,
  "email": null,
  "notes": null,
  "lat": 41.620002,
  "lon": -4.725991,
  "geo_quality": "city"
 },
 {
  "name": "Librería Micron",
  "kind": "IND",
  "chain": null,
  "ccaa": "Castilla y León",
  "province": "Valladolid",
  "address": "C/ San Quintín 8, Valladolid (tienda histórica)",
  "phone": null,
  "web": null,
  "email": null,
  "notes": null,
  "lat": 41.654007,
  "lon": -4.714686,
  "geo_quality": "address"
 },
 {
  "name": "Idea Publicidad",
  "kind": "IND",
  "chain": null,
  "ccaa": "Castilla y León",
  "province": "Ávila",
  "address": "C/ Bilbao 13 bajos, Ávila",
  "phone": null,
  "web": null,
  "email": null,
  "notes": null,
  "lat": 40.657195,
  "lon": -4.662668,
  "geo_quality": "city"
 },
 {
  "name": "La Mazmorra del Androide",
  "kind": "IND",
  "chain": null,
  "ccaa": "Castilla-La Mancha",
  "province": "Albacete",
  "address": "C/ Blasco de Garay 10, Albacete",
  "phone": null,
  "web": null,
  "email": null,
  "notes": null,
  "lat": 38.991947,
  "lon": -1.859002,
  "geo_quality": "address"
 },
 {
  "name": "Casa Escudero",
  "kind": "IND",
  "chain": null,
  "ccaa": "Castilla-La Mancha",
  "province": "Ciudad Real",
  "address": "C/ Emilio Castellar 32, 13600 Alcázar de San Juan",
  "phone": null,
  "web": null,
  "email": null,
  "notes": null,
  "lat": 39.387476,
  "lon": -3.210984,
  "geo_quality": "address"
 },
 {
  "name": "Zona 84 Books & Games",
  "kind": "IND",
  "chain": null,
  "ccaa": "Castilla-La Mancha",
  "province": "Ciudad Real",
  "address": "C/ Calatrava 24, 13001 Ciudad Real",
  "phone": null,
  "web": null,
  "email": null,
  "notes": null,
  "lat": 39.16116,
  "lon": -3.854873,
  "geo_quality": "address"
 },
 {
  "name": "Gamegame",
  "kind": "IND",
  "chain": null,
  "ccaa": "Castilla-La Mancha",
  "province": "Cuenca",
  "address": "C/ Río Tórtola 49, Cuenca",
  "phone": null,
  "web": null,
  "email": null,
  "notes": null,
  "lat": 40.057751,
  "lon": -2.128377,
  "geo_quality": "address"
 },
 {
  "name": "Generación X (Toledo)",
  "kind": "IND",
  "chain": "Generación X",
  "ccaa": "Castilla-La Mancha",
  "province": "Toledo",
  "address": "Tr.ª Uruguay 6, 45004 Toledo",
  "phone": "613 09 69 26",
  "web": null,
  "email": "toledo@generacionx.es",
  "notes": null,
  "lat": 39.856041,
  "lon": -4.055797,
  "geo_quality": "address"
 },
 {
  "name": "Invasión",
  "kind": "IND",
  "chain": null,
  "ccaa": "Castilla-La Mancha",
  "province": "Toledo",
  "address": "C.C. Nueva, Av. de la Constitución s/n, 45600 Talavera de la Reina",
  "phone": null,
  "web": null,
  "email": null,
  "notes": null,
  "lat": 39.963596,
  "lon": -4.822613,
  "geo_quality": "address"
 },
 {
  "name": "Warhammer – Badalona",
  "kind": "GW",
  "chain": null,
  "ccaa": "Cataluña",
  "province": "Barcelona",
  "address": "C/ Sant Joaquim 40, 08911 Badalona",
  "phone": null,
  "web": null,
  "email": null,
  "notes": null,
  "lat": 41.452957,
  "lon": 2.252912,
  "geo_quality": "address"
 },
 {
  "name": "Warhammer – Deu i Mata",
  "kind": "GW",
  "chain": null,
  "ccaa": "Cataluña",
  "province": "Barcelona",
  "address": "C/ Déu i Mata 96, 08029 Barcelona",
  "phone": null,
  "web": null,
  "email": null,
  "notes": null,
  "lat": 41.386502,
  "lon": 2.146055,
  "geo_quality": "address"
 },
 {
  "name": "Warhammer – Gaudí",
  "kind": "GW",
  "chain": null,
  "ccaa": "Cataluña",
  "province": "Barcelona",
  "address": "C/ Castillejos 333, 08025 Barcelona",
  "phone": "+34 934 36 87 82",
  "web": null,
  "email": null,
  "notes": "FB: /WarhammerGaudi · Talleres de pintura, ligas 40k/AoS",
  "lat": 41.408726,
  "lon": 2.17077,
  "geo_quality": "address"
 },
 {
  "name": "Warhammer – Roger de Llúria",
  "kind": "GW",
  "chain": null,
  "ccaa": "Cataluña",
  "province": "Barcelona",
  "address": "C/ Roger de Llúria 53, 08009 Barcelona",
  "phone": "+34 932 72 69 76",
  "web": null,
  "email": null,
  "notes": "FB: /WarhammerRogerdeLluria",
  "lat": 41.213881,
  "lon": 1.719232,
  "geo_quality": "address"
 },
 {
  "name": "2 De Piques",
  "kind": "IND",
  "chain": null,
  "ccaa": "Cataluña",
  "province": "Barcelona",
  "address": "C/ Sant Miquel 7, 08240 Manresa",
  "phone": null,
  "web": null,
  "email": null,
  "notes": null,
  "lat": 41.732628,
  "lon": 1.827501,
  "geo_quality": "address"
 },
 {
  "name": "Animake",
  "kind": "IND",
  "chain": null,
  "ccaa": "Cataluña",
  "province": "Barcelona",
  "address": "C/ Agustí Domingo 3, 08980 Sant Feliu de Llobregat",
  "phone": null,
  "web": null,
  "email": null,
  "notes": null,
  "lat": 41.384327,
  "lon": 2.048038,
  "geo_quality": "address"
 },
 {
  "name": "Cal Rabell",
  "kind": "IND",
  "chain": null,
  "ccaa": "Cataluña",
  "province": "Barcelona",
  "address": "C/ Santa Caterina 17, 08700 Igualada",
  "phone": null,
  "web": null,
  "email": null,
  "notes": null,
  "lat": 41.58211,
  "lon": 1.619105,
  "geo_quality": "address"
 },
 {
  "name": "Candamio",
  "kind": "IND",
  "chain": null,
  "ccaa": "Cataluña",
  "province": "Barcelona",
  "address": "C/ Església 246, Calella",
  "phone": null,
  "web": null,
  "email": null,
  "notes": null,
  "lat": 41.38258,
  "lon": 2.177073,
  "geo_quality": "city"
 },
 {
  "name": "Crisis Juegos",
  "kind": "IND",
  "chain": null,
  "ccaa": "Cataluña",
  "province": "Barcelona",
  "address": "Barcelona",
  "phone": null,
  "web": null,
  "email": null,
  "notes": null,
  "lat": 41.38258,
  "lon": 2.177073,
  "geo_quality": "address"
 },
 {
  "name": "Dark Nebula",
  "kind": "IND",
  "chain": null,
  "ccaa": "Cataluña",
  "province": "Barcelona",
  "address": "C/ Del Vidre 6 bajo, Igualada",
  "phone": null,
  "web": null,
  "email": null,
  "notes": null,
  "lat": 41.38258,
  "lon": 2.177073,
  "geo_quality": "city"
 },
 {
  "name": "Dragon Age Wargames",
  "kind": "IND",
  "chain": null,
  "ccaa": "Cataluña",
  "province": "Barcelona",
  "address": "C/ Olzinelles 27, 08014 Barcelona",
  "phone": null,
  "web": null,
  "email": null,
  "notes": null,
  "lat": 41.373731,
  "lon": 2.138646,
  "geo_quality": "address"
 },
 {
  "name": "Drobbit Hobby Store",
  "kind": "IND",
  "chain": null,
  "ccaa": "Cataluña",
  "province": "Barcelona",
  "address": "C/ Melcior de Palau 143, 08014 Barcelona",
  "phone": null,
  "web": null,
  "email": null,
  "notes": null,
  "lat": 41.373731,
  "lon": 2.138646,
  "geo_quality": "address"
 },
 {
  "name": "El Hogar del Héroe",
  "kind": "IND",
  "chain": null,
  "ccaa": "Cataluña",
  "province": "Barcelona",
  "address": "C/ Sol i Padrís 118, Sabadell",
  "phone": null,
  "web": null,
  "email": null,
  "notes": null,
  "lat": 41.38258,
  "lon": 2.177073,
  "geo_quality": "city"
 },
 {
  "name": "Frikimarkt",
  "kind": "IND",
  "chain": null,
  "ccaa": "Cataluña",
  "province": "Barcelona",
  "address": "C/ Major 10, El Prat de Llobregat",
  "phone": null,
  "web": null,
  "email": null,
  "notes": null,
  "lat": 41.38258,
  "lon": 2.177073,
  "geo_quality": "city"
 },
 {
  "name": "Frikiplaza BCN",
  "kind": "IND",
  "chain": null,
  "ccaa": "Cataluña",
  "province": "Barcelona",
  "address": "Centro friki, Barcelona (consulta web/RRSS)",
  "phone": null,
  "web": null,
  "email": null,
  "notes": null,
  "lat": 41.38258,
  "lon": 2.177073,
  "geo_quality": "city"
 },
 {
  "name": "Gameshop",
  "kind": "IND",
  "chain": null,
  "ccaa": "Cataluña",
  "province": "Barcelona",
  "address": "C/ Rosa Ribas Parellada 24, El Prat de Llobregat",
  "phone": null,
  "web": null,
  "email": null,
  "notes": null,
  "lat": 41.38258,
  "lon": 2.177073,
  "geo_quality": "city"
 },
 {
  "name": "Goblin Trader Barcelona (P. Sant Joan)",
  "kind": "IND",
  "chain": "Goblin Trader",
  "ccaa": "Cataluña",
  "province": "Barcelona",
  "address": "Pg. de Sant Joan 17, 08010 Barcelona",
  "phone": "640 932 703",
  "web": null,
  "email": "gtsbarcelonasj@goblintrader.es",
  "notes": null,
  "lat": 41.39262,
  "lon": 2.178104,
  "geo_quality": "address"
 },
 {
  "name": "Homoludicus Granollers",
  "kind": "IND",
  "chain": null,
  "ccaa": "Cataluña",
  "province": "Barcelona",
  "address": "C/ Barcelona 77 local, Granollers",
  "phone": null,
  "web": null,
  "email": null,
  "notes": null,
  "lat": 41.38258,
  "lon": 2.177073,
  "geo_quality": "city"
 },
 {
  "name": "Ilurocomic",
  "kind": "IND",
  "chain": null,
  "ccaa": "Cataluña",
  "province": "Barcelona",
  "address": "C/ Ronda Prim 86, 08302 Mataró",
  "phone": null,
  "web": null,
  "email": null,
  "notes": null,
  "lat": 41.535353,
  "lon": 2.436685,
  "geo_quality": "address"
 },
 {
  "name": "Joguiba",
  "kind": "IND",
  "chain": null,
  "ccaa": "Cataluña",
  "province": "Barcelona",
  "address": "Barcelona / Manresa",
  "phone": null,
  "web": null,
  "email": null,
  "notes": null,
  "lat": 41.733312,
  "lon": 1.822736,
  "geo_quality": "address"
 },
 {
  "name": "Joguines Pardo",
  "kind": "IND",
  "chain": null,
  "ccaa": "Cataluña",
  "province": "Barcelona",
  "address": "C/ Sant Ramon 99, Cerdanyola del Vallès",
  "phone": null,
  "web": null,
  "email": null,
  "notes": null,
  "lat": 41.38258,
  "lon": 2.177073,
  "geo_quality": "city"
 },
 {
  "name": "Júpiter Juegos Barcelona",
  "kind": "IND",
  "chain": null,
  "ccaa": "Cataluña",
  "province": "Barcelona",
  "address": "Barcelona",
  "phone": null,
  "web": null,
  "email": null,
  "notes": null,
  "lat": 41.38258,
  "lon": 2.177073,
  "geo_quality": "address"
 },
 {
  "name": "Kaburi Sants",
  "kind": "IND",
  "chain": null,
  "ccaa": "Cataluña",
  "province": "Barcelona",
  "address": "Barcelona (talleres de pintura avanzada)",
  "phone": null,
  "web": null,
  "email": null,
  "notes": null,
  "lat": 41.38258,
  "lon": 2.177073,
  "geo_quality": "address"
 },
 {
  "name": "Kafrelot",
  "kind": "IND",
  "chain": null,
  "ccaa": "Cataluña",
  "province": "Barcelona",
  "address": "C/ Font del Be 14, Sant Joan Despí",
  "phone": null,
  "web": null,
  "email": null,
  "notes": null,
  "lat": 41.38258,
  "lon": 2.177073,
  "geo_quality": "city"
 },
 {
  "name": "La Caverna de Voltir",
  "kind": "IND",
  "chain": null,
  "ccaa": "Cataluña",
  "province": "Barcelona",
  "address": "C/ Homs 14, Caldes de Montbui",
  "phone": null,
  "web": null,
  "email": null,
  "notes": null,
  "lat": 41.38258,
  "lon": 2.177073,
  "geo_quality": "city"
 },
 {
  "name": "Ludorum Juegos",
  "kind": "IND",
  "chain": null,
  "ccaa": "Cataluña",
  "province": "Barcelona",
  "address": "Barcelona",
  "phone": null,
  "web": null,
  "email": null,
  "notes": null,
  "lat": 41.38258,
  "lon": 2.177073,
  "geo_quality": "address"
 },
 {
  "name": "Mini Hobby",
  "kind": "IND",
  "chain": null,
  "ccaa": "Cataluña",
  "province": "Barcelona",
  "address": "C/ Sant Jaume 10-14 local 5, Granollers",
  "phone": null,
  "web": null,
  "email": null,
  "notes": null,
  "lat": 41.38258,
  "lon": 2.177073,
  "geo_quality": "city"
 },
 {
  "name": "Norma Cómics",
  "kind": "IND",
  "chain": null,
  "ccaa": "Cataluña",
  "province": "Barcelona",
  "address": "Pg. de Sant Joan 9, 08010 Barcelona",
  "phone": "93 244 81 25",
  "web": "normacomics.com",
  "email": "info@normacomics.com",
  "notes": "Sección Warhammer",
  "lat": 41.392395,
  "lon": 2.178408,
  "geo_quality": "address"
 },
 {
  "name": "Plan B Miniaturas",
  "kind": "IND",
  "chain": null,
  "ccaa": "Cataluña",
  "province": "Barcelona",
  "address": "C/ Biada 3 local, 08012 Barcelona",
  "phone": null,
  "web": null,
  "email": null,
  "notes": null,
  "lat": 41.402213,
  "lon": 2.157383,
  "geo_quality": "address"
 },
 {
  "name": "Rambla Comics / Troll Cave",
  "kind": "IND",
  "chain": null,
  "ccaa": "Cataluña",
  "province": "Barcelona",
  "address": "Rambla Egara 273, 08221 Terrassa",
  "phone": null,
  "web": "troll-cave.com",
  "email": null,
  "notes": null,
  "lat": 41.563645,
  "lon": 2.007989,
  "geo_quality": "address"
 },
 {
  "name": "Rincón del Friki",
  "kind": "IND",
  "chain": null,
  "ccaa": "Cataluña",
  "province": "Barcelona",
  "address": "Av. Onze de Setembre 62, Sabadell",
  "phone": null,
  "web": null,
  "email": null,
  "notes": null,
  "lat": 41.38258,
  "lon": 2.177073,
  "geo_quality": "city"
 },
 {
  "name": "Skalibur",
  "kind": "IND",
  "chain": null,
  "ccaa": "Cataluña",
  "province": "Barcelona",
  "address": "C/ Creu 4-6 local 2, 08191 Rubí",
  "phone": null,
  "web": null,
  "email": null,
  "notes": null,
  "lat": 41.499219,
  "lon": 2.037706,
  "geo_quality": "address"
 },
 {
  "name": "T.O.T. Hobby's",
  "kind": "IND",
  "chain": null,
  "ccaa": "Cataluña",
  "province": "Barcelona",
  "address": "Vilanova i la Geltrú",
  "phone": null,
  "web": null,
  "email": null,
  "notes": null,
  "lat": 41.224199,
  "lon": 1.725633,
  "geo_quality": "address"
 },
 {
  "name": "Warhammer – Girona",
  "kind": "GW",
  "chain": null,
  "ccaa": "Cataluña",
  "province": "Girona",
  "address": "C/ Sant Joan Baptista de la Salle 39, 17002 Girona",
  "phone": "+34 972 22 73 18",
  "web": null,
  "email": null,
  "notes": "FB: /WarhammerGirona · Talleres de pintura iniciales, mesas",
  "lat": 41.977929,
  "lon": 2.820838,
  "geo_quality": "address"
 },
 {
  "name": "Llibreria El Cucut",
  "kind": "IND",
  "chain": null,
  "ccaa": "Cataluña",
  "province": "Girona",
  "address": "C/ del Roser 29-31, Torroella de Montgrí (Girona)",
  "phone": null,
  "web": "llibreriaelcucut.cat",
  "email": null,
  "notes": "10% descuento sobre PVP en todo el catálogo GW",
  "lat": 41.979301,
  "lon": 2.819944,
  "geo_quality": "city"
 },
 {
  "name": "La Maquina del Temps",
  "kind": "IND",
  "chain": null,
  "ccaa": "Cataluña",
  "province": "Lleida",
  "address": "Av. Alcalde Porqueres 10 bajo, 25008 Lleida",
  "phone": null,
  "web": null,
  "email": null,
  "notes": null,
  "lat": 41.623129,
  "lon": 0.621656,
  "geo_quality": "address"
 },
 {
  "name": "Taleia Modelismo",
  "kind": "IND",
  "chain": null,
  "ccaa": "Cataluña",
  "province": "Lleida",
  "address": "C/ Vallcalent 9, 25006 Lleida",
  "phone": null,
  "web": null,
  "email": null,
  "notes": null,
  "lat": 41.619383,
  "lon": 0.615231,
  "geo_quality": "address"
 },
 {
  "name": "Hobby Miniatures",
  "kind": "IND",
  "chain": null,
  "ccaa": "Cataluña",
  "province": "Tarragona",
  "address": "C/ De La Sardana 12, 43204 Reus (Tarragona)",
  "phone": null,
  "web": null,
  "email": null,
  "notes": null,
  "lat": 41.152678,
  "lon": 1.116831,
  "geo_quality": "address"
 },
 {
  "name": "Joguines Carreres",
  "kind": "IND",
  "chain": null,
  "ccaa": "Cataluña",
  "province": "Tarragona",
  "address": "C/ Dr. Peris 30, 43740 Móra d'Ebre (Tarragona)",
  "phone": null,
  "web": null,
  "email": null,
  "notes": null,
  "lat": 41.088766,
  "lon": 0.638347,
  "geo_quality": "address"
 },
 {
  "name": "Warhammer – Pamplona",
  "kind": "GW",
  "chain": null,
  "ccaa": "Comunidad Foral de Navarra",
  "province": "Comunidad Foral de Navarra",
  "address": "Av. Pío XII 6, 31008 Pamplona",
  "phone": "+34 948 25 92 74",
  "web": "games-workshop.com/Warhammer-Pamplona",
  "email": null,
  "notes": "FB: /WarhammerPamplona · Instagram: @whpamplona · Mesas y demos",
  "lat": 42.81221,
  "lon": -1.65545,
  "geo_quality": "address"
 },
 {
  "name": "Norma Cómics Pamplona",
  "kind": "IND",
  "chain": "Norma Cómics",
  "ccaa": "Comunidad Foral de Navarra",
  "province": "Comunidad Foral de Navarra",
  "address": "C/ Iñigo Arista 24 (trasera), 31007 Pamplona",
  "phone": "948 27 45 07",
  "web": "comicspamplona.com",
  "email": null,
  "notes": null,
  "lat": 42.806043,
  "lon": -1.65473,
  "geo_quality": "address"
 },
 {
  "name": "Wardogs Miniatures",
  "kind": "IND",
  "chain": null,
  "ccaa": "Comunidad Foral de Navarra",
  "province": "Comunidad Foral de Navarra",
  "address": "C/ San Juan Bosco 20, Pamplona",
  "phone": null,
  "web": null,
  "email": null,
  "notes": "Mesas, \"noche del veterano\" los viernes",
  "lat": 42.804733,
  "lon": -1.648973,
  "geo_quality": "address"
 },
 {
  "name": "Ateneo Comics",
  "kind": "IND",
  "chain": null,
  "ccaa": "Comunidad Valenciana",
  "province": "Alicante",
  "address": "C/ Serrano 10, Alicante",
  "phone": null,
  "web": null,
  "email": null,
  "notes": null,
  "lat": 38.544973,
  "lon": -0.133899,
  "geo_quality": "address"
 },
 {
  "name": "Comix City",
  "kind": "IND",
  "chain": null,
  "ccaa": "Comunidad Valenciana",
  "province": "Alicante",
  "address": "C/ Serrano 15, 03003 Alicante",
  "phone": null,
  "web": null,
  "email": null,
  "notes": null,
  "lat": 38.344432,
  "lon": -0.493855,
  "geo_quality": "address"
 },
 {
  "name": "Gobelet",
  "kind": "IND",
  "chain": null,
  "ccaa": "Comunidad Valenciana",
  "province": "Alicante",
  "address": "C/ Ibi 16, 03801 Alcoy",
  "phone": null,
  "web": null,
  "email": null,
  "notes": null,
  "lat": 38.625201,
  "lon": -0.583273,
  "geo_quality": "address"
 },
 {
  "name": "Goblin Trader Alicante",
  "kind": "IND",
  "chain": "Goblin Trader",
  "ccaa": "Comunidad Valenciana",
  "province": "Alicante",
  "address": "C/ Serrano 13, 03003 Alicante",
  "phone": "966 32 26 27",
  "web": null,
  "email": "gtsalicante@goblintrader.es",
  "notes": null,
  "lat": 38.344366,
  "lon": -0.493671,
  "geo_quality": "address"
 },
 {
  "name": "Hobby Elx",
  "kind": "IND",
  "chain": null,
  "ccaa": "Comunidad Valenciana",
  "province": "Alicante",
  "address": "Av. de la Libertad 52B, 03203 Elche",
  "phone": null,
  "web": null,
  "email": null,
  "notes": null,
  "lat": 38.291933,
  "lon": -0.619531,
  "geo_quality": "address"
 },
 {
  "name": "La Última Fortaleza",
  "kind": "IND",
  "chain": null,
  "ccaa": "Comunidad Valenciana",
  "province": "Alicante",
  "address": "Plaza General Mancha 7 bajo, Alicante",
  "phone": null,
  "web": null,
  "email": null,
  "notes": null,
  "lat": 38.343637,
  "lon": -0.488171,
  "geo_quality": "city"
 },
 {
  "name": "Pulsar Store",
  "kind": "IND",
  "chain": null,
  "ccaa": "Comunidad Valenciana",
  "province": "Alicante",
  "address": "C/ Patricio Pérez 55, 03182 Torrevieja",
  "phone": null,
  "web": null,
  "email": null,
  "notes": null,
  "lat": 37.978955,
  "lon": -0.684729,
  "geo_quality": "address"
 },
 {
  "name": "Rodas Comics",
  "kind": "IND",
  "chain": null,
  "ccaa": "Comunidad Valenciana",
  "province": "Alicante",
  "address": "C/ Campo Amor 99, Torrevieja",
  "phone": null,
  "web": null,
  "email": null,
  "notes": null,
  "lat": 38.343637,
  "lon": -0.488171,
  "geo_quality": "city"
 },
 {
  "name": "La Orden del Dragón",
  "kind": "IND",
  "chain": null,
  "ccaa": "Comunidad Valenciana",
  "province": "Castellón",
  "address": "C/ Gobernador Bermúdez de Castro 65B, 12003 Castellón de la Plana",
  "phone": null,
  "web": null,
  "email": null,
  "notes": null,
  "lat": 39.987849,
  "lon": -0.034013,
  "geo_quality": "address"
 },
 {
  "name": "Mol-Rod",
  "kind": "IND",
  "chain": null,
  "ccaa": "Comunidad Valenciana",
  "province": "Castellón",
  "address": "Plaza del Real 18, Castellón",
  "phone": null,
  "web": null,
  "email": null,
  "notes": null,
  "lat": 39.984485,
  "lon": -0.040148,
  "geo_quality": "address"
 },
 {
  "name": "Warhammer – València",
  "kind": "GW",
  "chain": null,
  "ccaa": "Comunidad Valenciana",
  "province": "Valencia",
  "address": "C/ Roger de Lauria 11, 46002 Valencia",
  "phone": "+34 963 51 57 17",
  "web": null,
  "email": null,
  "notes": "X/Twitter: @GW_Valencia · FB: /WarhammerValencia",
  "lat": 39.547191,
  "lon": -0.392358,
  "geo_quality": "address"
 },
 {
  "name": "Avalon Catarroja",
  "kind": "IND",
  "chain": null,
  "ccaa": "Comunidad Valenciana",
  "province": "Valencia",
  "address": "C/ Antonio Carpio 18 bajo, 46470 Catarroja",
  "phone": null,
  "web": null,
  "email": null,
  "notes": null,
  "lat": 39.405515,
  "lon": -0.401377,
  "geo_quality": "address"
 },
 {
  "name": "Generación X Valencia",
  "kind": "IND",
  "chain": "Generación X",
  "ccaa": "Comunidad Valenciana",
  "province": "Valencia",
  "address": "Carrer de la Vila de Muro 5, 46020 Valencia",
  "phone": "96 338 88 20",
  "web": null,
  "email": "valencia@generacionx.es",
  "notes": null,
  "lat": 39.483882,
  "lon": -0.361802,
  "geo_quality": "address"
 },
 {
  "name": "Goblin Trader Valencia",
  "kind": "IND",
  "chain": "Goblin Trader",
  "ccaa": "Comunidad Valenciana",
  "province": "Valencia",
  "address": "C/ Conde de Altea 4, 46005 Valencia",
  "phone": "963 286 835",
  "web": null,
  "email": "gtsvalencia@goblintrader.es",
  "notes": "Torneos Bolt Action, ligas 40k",
  "lat": 39.465095,
  "lon": -0.370025,
  "geo_quality": "address"
 },
 {
  "name": "Gremio de Dragones",
  "kind": "IND",
  "chain": null,
  "ccaa": "Comunidad Valenciana",
  "province": "Valencia",
  "address": "Av. Doctor Peset Aleixandre 91, Valencia",
  "phone": null,
  "web": null,
  "email": null,
  "notes": null,
  "lat": 39.491614,
  "lon": -0.376324,
  "geo_quality": "address"
 },
 {
  "name": "Khanbarrilete",
  "kind": "IND",
  "chain": null,
  "ccaa": "Comunidad Valenciana",
  "province": "Valencia",
  "address": "C/ San Antonio 113 bajo, Mislata (Valencia)",
  "phone": null,
  "web": "khanbarrilete.com",
  "email": null,
  "notes": null,
  "lat": 39.469707,
  "lon": -0.376335,
  "geo_quality": "city"
 },
 {
  "name": "Kingdom Wargames – Reino de Valencia",
  "kind": "IND",
  "chain": "Kingdom Wargames",
  "ccaa": "Comunidad Valenciana",
  "province": "Valencia",
  "address": "Valencia",
  "phone": null,
  "web": "kingdomwargames.com",
  "email": null,
  "notes": null,
  "lat": 39.469707,
  "lon": -0.376335,
  "geo_quality": "address"
 },
 {
  "name": "La Escotilla",
  "kind": "IND",
  "chain": null,
  "ccaa": "Comunidad Valenciana",
  "province": "Valencia",
  "address": "Valencia",
  "phone": null,
  "web": "laescotillajuegos.com",
  "email": null,
  "notes": null,
  "lat": 39.469707,
  "lon": -0.376335,
  "geo_quality": "address"
 },
 {
  "name": "La Roca Wargames",
  "kind": "IND",
  "chain": null,
  "ccaa": "Comunidad Valenciana",
  "province": "Valencia",
  "address": "C/ Brasil 42, Valencia",
  "phone": null,
  "web": null,
  "email": null,
  "notes": null,
  "lat": 39.472315,
  "lon": -0.399709,
  "geo_quality": "address"
 },
 {
  "name": "Mis Tres Dragones",
  "kind": "IND",
  "chain": null,
  "ccaa": "Comunidad Valenciana",
  "province": "Valencia",
  "address": "Plaza de Noguera 2 bajo, Puerto de Sagunto",
  "phone": null,
  "web": null,
  "email": null,
  "notes": null,
  "lat": 39.469707,
  "lon": -0.376335,
  "geo_quality": "city"
 },
 {
  "name": "Passarella Pop",
  "kind": "IND",
  "chain": null,
  "ccaa": "Comunidad Valenciana",
  "province": "Valencia",
  "address": "Picanya (Valencia)",
  "phone": null,
  "web": "passarellaweb.es",
  "email": null,
  "notes": "Especialista Warhammer",
  "lat": 39.435397,
  "lon": -0.435878,
  "geo_quality": "address"
 },
 {
  "name": "Planet Wargames",
  "kind": "IND",
  "chain": null,
  "ccaa": "Comunidad Valenciana",
  "province": "Valencia",
  "address": "C/ Olocau 8 bajo izq., L'Eliana",
  "phone": null,
  "web": null,
  "email": null,
  "notes": null,
  "lat": 39.469707,
  "lon": -0.376335,
  "geo_quality": "city"
 },
 {
  "name": "Warpaint",
  "kind": "IND",
  "chain": null,
  "ccaa": "Comunidad Valenciana",
  "province": "Valencia",
  "address": "C/ Rascaña 12, 46015 Valencia",
  "phone": null,
  "web": "warpaint.es",
  "email": null,
  "notes": null,
  "lat": 39.876849,
  "lon": -0.502807,
  "geo_quality": "address"
 },
 {
  "name": "Warhammer – Argüelles",
  "kind": "GW",
  "chain": null,
  "ccaa": "Comunidad de Madrid",
  "province": "Comunidad de Madrid",
  "address": "C/ Andrés Mellado 10, 28015 Madrid",
  "phone": "+34 915 44 22 92",
  "web": null,
  "email": "madrid04.arguelles@gwplc.com",
  "notes": "FB: /WarhammerArguelles",
  "lat": 40.43134,
  "lon": -3.714504,
  "geo_quality": "address"
 },
 {
  "name": "Warhammer – Bernabéu",
  "kind": "GW",
  "chain": null,
  "ccaa": "Comunidad de Madrid",
  "province": "Comunidad de Madrid",
  "address": "C/ Panamá 2, 28036 Madrid",
  "phone": "+34 914 57 83 81",
  "web": null,
  "email": "madrid05.bernabeu@gwplc.com",
  "notes": "FB: /WarhammerBernabeu",
  "lat": 40.456482,
  "lon": -3.689372,
  "geo_quality": "address"
 },
 {
  "name": "Warhammer – Goya",
  "kind": "GW",
  "chain": null,
  "ccaa": "Comunidad de Madrid",
  "province": "Comunidad de Madrid",
  "address": "C/ Duque de Sesto 22, 28009 Madrid",
  "phone": "información en localizador",
  "web": null,
  "email": null,
  "notes": null,
  "lat": 40.418809,
  "lon": -3.67253,
  "geo_quality": "address"
 },
 {
  "name": "Warhammer – Tres Aguas",
  "kind": "GW",
  "chain": null,
  "ccaa": "Comunidad de Madrid",
  "province": "Comunidad de Madrid",
  "address": "Av. de América 7-9, CC Tres Aguas, 28922 Alcorcón",
  "phone": null,
  "web": null,
  "email": null,
  "notes": null,
  "lat": 40.339098,
  "lon": -3.832282,
  "geo_quality": "address"
 },
 {
  "name": "Akira Comics",
  "kind": "IND",
  "chain": null,
  "ccaa": "Comunidad de Madrid",
  "province": "Comunidad de Madrid",
  "address": "Av. Betanzos 74, 28029 Madrid",
  "phone": null,
  "web": null,
  "email": null,
  "notes": null,
  "lat": 40.482371,
  "lon": -3.713617,
  "geo_quality": "address"
 },
 {
  "name": "Defiance Wargames",
  "kind": "IND",
  "chain": null,
  "ccaa": "Comunidad de Madrid",
  "province": "Comunidad de Madrid",
  "address": "C.C. El Zoco de la Poveda, Arganda del Rey",
  "phone": null,
  "web": null,
  "email": null,
  "notes": null,
  "lat": 40.524832,
  "lon": -3.771563,
  "geo_quality": "city"
 },
 {
  "name": "El Arca Negra",
  "kind": "IND",
  "chain": null,
  "ccaa": "Comunidad de Madrid",
  "province": "Comunidad de Madrid",
  "address": "C/ Rey Pastor 48, local 1, 28914 Leganés (Madrid)",
  "phone": null,
  "web": null,
  "email": null,
  "notes": "Tienda física Warhammer con dos plantas, mesas de juego y club de socios",
  "lat": 40.320248,
  "lon": -3.758993,
  "geo_quality": "address"
 },
 {
  "name": "Generación X Rivas",
  "kind": "IND",
  "chain": null,
  "ccaa": "Comunidad de Madrid",
  "province": "Comunidad de Madrid",
  "address": "C/ Severo Ochoa 13, Bloque D, Rivas-Vaciamadrid",
  "phone": null,
  "web": null,
  "email": null,
  "notes": null,
  "lat": 40.524832,
  "lon": -3.771563,
  "geo_quality": "city"
 },
 {
  "name": "GenX Alcorcón",
  "kind": "IND",
  "chain": null,
  "ccaa": "Comunidad de Madrid",
  "province": "Comunidad de Madrid",
  "address": "C/ Los Pinos 50, 28922 Alcorcón",
  "phone": "91 644 24 46",
  "web": null,
  "email": null,
  "notes": null,
  "lat": 40.340003,
  "lon": -3.835752,
  "geo_quality": "address"
 },
 {
  "name": "GenX Carranza",
  "kind": "IND",
  "chain": null,
  "ccaa": "Comunidad de Madrid",
  "province": "Comunidad de Madrid",
  "address": "C/ Carranza 25, 28004 Madrid",
  "phone": "91 447 07 46",
  "web": null,
  "email": null,
  "notes": "carranza@generacionx.es",
  "lat": 40.429243,
  "lon": -3.704939,
  "geo_quality": "address"
 },
 {
  "name": "GenX Elfo",
  "kind": "IND",
  "chain": null,
  "ccaa": "Comunidad de Madrid",
  "province": "Comunidad de Madrid",
  "address": "C/ Elfo 98, 28027 Madrid",
  "phone": "91 367 53 80",
  "web": null,
  "email": null,
  "notes": "elfo@generacionx.es",
  "lat": 40.435358,
  "lon": -3.646264,
  "geo_quality": "address"
 },
 {
  "name": "GenX Fuenlabrada",
  "kind": "IND",
  "chain": null,
  "ccaa": "Comunidad de Madrid",
  "province": "Comunidad de Madrid",
  "address": "Plaza de la Albufera 3, 28945 Fuenlabrada",
  "phone": "91 615 78 19",
  "web": null,
  "email": null,
  "notes": null,
  "lat": 40.290659,
  "lon": -3.791532,
  "geo_quality": "address"
 },
 {
  "name": "GenX Getafe",
  "kind": "IND",
  "chain": null,
  "ccaa": "Comunidad de Madrid",
  "province": "Comunidad de Madrid",
  "address": "C/ General Pingarrón 1, 28901 Getafe",
  "phone": "91 684 20 74",
  "web": null,
  "email": null,
  "notes": null,
  "lat": 40.309321,
  "lon": -3.732187,
  "geo_quality": "address"
 },
 {
  "name": "GenX Ginzo",
  "kind": "IND",
  "chain": null,
  "ccaa": "Comunidad de Madrid",
  "province": "Comunidad de Madrid",
  "address": "Ginzo de Limia 33, 28034 Madrid",
  "phone": "91 730 01 68",
  "web": null,
  "email": null,
  "notes": null,
  "lat": 40.478174,
  "lon": -3.70429,
  "geo_quality": "address"
 },
 {
  "name": "GenX Las Musas",
  "kind": "IND",
  "chain": null,
  "ccaa": "Comunidad de Madrid",
  "province": "Comunidad de Madrid",
  "address": "Av. de Canillejas a Vicálvaro 113, 28022 Madrid",
  "phone": "91 277 10 57",
  "web": null,
  "email": null,
  "notes": null,
  "lat": 40.429345,
  "lon": -3.610584,
  "geo_quality": "address"
 },
 {
  "name": "GenX Puebla",
  "kind": "IND",
  "chain": null,
  "ccaa": "Comunidad de Madrid",
  "province": "Comunidad de Madrid",
  "address": "C/ Puebla 15, 28004 Madrid",
  "phone": "91 521 99 85",
  "web": null,
  "email": null,
  "notes": "genx@generacionx.es",
  "lat": 40.422225,
  "lon": -3.7038,
  "geo_quality": "address"
 },
 {
  "name": "GenX Tirso",
  "kind": "IND",
  "chain": null,
  "ccaa": "Comunidad de Madrid",
  "province": "Comunidad de Madrid",
  "address": "C/ Conde de Romanones 3, 28012 Madrid",
  "phone": "911 593 339",
  "web": null,
  "email": null,
  "notes": "tirso@generacionx.es · Tienda + cafetería Coco Bar",
  "lat": 40.413694,
  "lon": -3.704576,
  "geo_quality": "address"
 },
 {
  "name": "GT Central (Fuenlabrada)",
  "kind": "IND",
  "chain": null,
  "ccaa": "Comunidad de Madrid",
  "province": "Comunidad de Madrid",
  "address": "C/ Almanzor 10, 28940 Fuenlabrada",
  "phone": "673 388 495",
  "web": null,
  "email": null,
  "notes": "gtscentral@goblintrader.es",
  "lat": 40.275235,
  "lon": -3.806887,
  "geo_quality": "address"
 },
 {
  "name": "GT Madrid Este",
  "kind": "IND",
  "chain": null,
  "ccaa": "Comunidad de Madrid",
  "province": "Comunidad de Madrid",
  "address": "C/ Antonio Toledano 36, Madrid",
  "phone": null,
  "web": null,
  "email": null,
  "notes": null,
  "lat": 40.423243,
  "lon": -3.667095,
  "geo_quality": "address"
 },
 {
  "name": "GT Madrid Norte",
  "kind": "IND",
  "chain": null,
  "ccaa": "Comunidad de Madrid",
  "province": "Comunidad de Madrid",
  "address": "C/ Marqués de Lema 7, 28003 Madrid",
  "phone": "91 071 58 50",
  "web": null,
  "email": null,
  "notes": "gtsmadridnorte@goblintrader.es",
  "lat": 40.445646,
  "lon": -3.706417,
  "geo_quality": "address"
 },
 {
  "name": "GT Madrid Sur",
  "kind": "IND",
  "chain": null,
  "ccaa": "Comunidad de Madrid",
  "province": "Comunidad de Madrid",
  "address": "Ronda de Toledo 28, 28005 Madrid",
  "phone": "91 081 08 70",
  "web": null,
  "email": null,
  "notes": "gtsmadridsur@goblintrader.es",
  "lat": 40.40535,
  "lon": -3.705475,
  "geo_quality": "address"
 },
 {
  "name": "Hammer Worldshop",
  "kind": "IND",
  "chain": null,
  "ccaa": "Comunidad de Madrid",
  "province": "Comunidad de Madrid",
  "address": "C/ San José de Calasanz 19, 28903 Getafe",
  "phone": null,
  "web": null,
  "email": null,
  "notes": null,
  "lat": 40.311175,
  "lon": -3.729886,
  "geo_quality": "address"
 },
 {
  "name": "Kingdom Wargames – Reino de Madrid / Ducado de Alcorcón",
  "kind": "IND",
  "chain": null,
  "ccaa": "Comunidad de Madrid",
  "province": "Comunidad de Madrid",
  "address": "Web: kingdomwargames.com",
  "phone": null,
  "web": null,
  "email": null,
  "notes": null,
  "lat": 40.524832,
  "lon": -3.771563,
  "geo_quality": "city"
 },
 {
  "name": "La Quimera",
  "kind": "IND",
  "chain": null,
  "ccaa": "Comunidad de Madrid",
  "province": "Comunidad de Madrid",
  "address": "C/ Jorge Juan 112, 28009 Madrid",
  "phone": null,
  "web": null,
  "email": null,
  "notes": null,
  "lat": 40.422757,
  "lon": -3.666785,
  "geo_quality": "address"
 },
 {
  "name": "Librería Atlántica",
  "kind": "IND",
  "chain": null,
  "ccaa": "Comunidad de Madrid",
  "province": "Comunidad de Madrid",
  "address": "C/ Luna 6, 28004 Madrid",
  "phone": null,
  "web": null,
  "email": null,
  "notes": null,
  "lat": 40.343096,
  "lon": -3.825849,
  "geo_quality": "address"
 },
 {
  "name": "Ludus Belli Móstoles",
  "kind": "IND",
  "chain": null,
  "ccaa": "Comunidad de Madrid",
  "province": "Comunidad de Madrid",
  "address": "C/ Río Tajuña 8, 28931 Móstoles",
  "phone": null,
  "web": null,
  "email": null,
  "notes": null,
  "lat": 40.31965,
  "lon": -3.868371,
  "geo_quality": "address"
 },
 {
  "name": "Modelismo Alcobendas",
  "kind": "IND",
  "chain": null,
  "ccaa": "Comunidad de Madrid",
  "province": "Comunidad de Madrid",
  "address": "Av. Fuente Nueva 5, Nave 14B, 28703 San Sebastián de los Reyes",
  "phone": "91 662 38 73",
  "web": "modelismoalcobendas.com",
  "email": null,
  "notes": null,
  "lat": 40.549131,
  "lon": -3.617654,
  "geo_quality": "address"
 },
 {
  "name": "Panzer Juegos",
  "kind": "IND",
  "chain": null,
  "ccaa": "Comunidad de Madrid",
  "province": "Comunidad de Madrid",
  "address": "Pº de las Camelias s/n, Paracuellos de Jarama",
  "phone": null,
  "web": null,
  "email": null,
  "notes": null,
  "lat": 40.524832,
  "lon": -3.771563,
  "geo_quality": "city"
 },
 {
  "name": "Papelería La Ronda",
  "kind": "IND",
  "chain": null,
  "ccaa": "Comunidad de Madrid",
  "province": "Comunidad de Madrid",
  "address": "Ronda de Atocha 26, 28012 Madrid",
  "phone": null,
  "web": null,
  "email": null,
  "notes": null,
  "lat": 40.40633,
  "lon": -3.698371,
  "geo_quality": "address"
 },
 {
  "name": "Papelería Marisol",
  "kind": "IND",
  "chain": null,
  "ccaa": "Comunidad de Madrid",
  "province": "Comunidad de Madrid",
  "address": "C/ Pedro Yagüe 2 (Usera/Carabanchel), Madrid",
  "phone": null,
  "web": "papeleriamarisol.es",
  "email": null,
  "notes": null,
  "lat": 40.392881,
  "lon": -3.708453,
  "geo_quality": "address"
 },
 {
  "name": "Toy Planet Yupi",
  "kind": "IND",
  "chain": null,
  "ccaa": "Comunidad de Madrid",
  "province": "Comunidad de Madrid",
  "address": "Rincón de las Eras 1, Collado Villalba",
  "phone": null,
  "web": null,
  "email": null,
  "notes": null,
  "lat": 40.636436,
  "lon": -4.008116,
  "geo_quality": "address"
 },
 {
  "name": "Wargame Garrison",
  "kind": "IND",
  "chain": null,
  "ccaa": "Comunidad de Madrid",
  "province": "Comunidad de Madrid",
  "address": "Alcorcón (Madrid)",
  "phone": null,
  "web": "wargamegarrison.com",
  "email": null,
  "notes": "Tienda + torneos presenciales",
  "lat": 40.3493,
  "lon": -3.828429,
  "geo_quality": "address"
 },
 {
  "name": "Espina Hobbies",
  "kind": "IND",
  "chain": null,
  "ccaa": "Extremadura",
  "province": "Badajoz",
  "address": "C/ Meléndez Valdés 26, 06001 Badajoz",
  "phone": null,
  "web": "espinahobbies.com",
  "email": null,
  "notes": "Modelismo + wargames",
  "lat": 38.879425,
  "lon": -6.971711,
  "geo_quality": "address"
 },
 {
  "name": "Ludus Belli",
  "kind": "IND",
  "chain": null,
  "ccaa": "Extremadura",
  "province": "Badajoz",
  "address": "Badajoz",
  "phone": null,
  "web": "ludusbelli.com",
  "email": null,
  "notes": "Warhammer, TCG, mesas y eventos",
  "lat": 38.878187,
  "lon": -6.970111,
  "geo_quality": "address"
 },
 {
  "name": "Ludus in Tabula",
  "kind": "IND",
  "chain": null,
  "ccaa": "Extremadura",
  "province": "Badajoz",
  "address": "C/ Jacinta Hernández 1, Badajoz",
  "phone": null,
  "web": null,
  "email": null,
  "notes": null,
  "lat": 38.866413,
  "lon": -6.982589,
  "geo_quality": "address"
 },
 {
  "name": "Generación X Cáceres",
  "kind": "IND",
  "chain": "Generación X",
  "ccaa": "Extremadura",
  "province": "Cáceres",
  "address": "Av. España 22, Bloque 3, Local 3, Cáceres",
  "phone": null,
  "web": null,
  "email": null,
  "notes": null,
  "lat": 39.474517,
  "lon": -6.371676,
  "geo_quality": "city"
 },
 {
  "name": "A Gata Tola",
  "kind": "IND",
  "chain": null,
  "ccaa": "Galicia",
  "province": "A Coruña",
  "address": "Av. Romero Donalio 9, 15703 Santiago de Compostela",
  "phone": null,
  "web": null,
  "email": null,
  "notes": null,
  "lat": 42.88337,
  "lon": -8.53319,
  "geo_quality": "address"
 },
 {
  "name": "Alita Comics",
  "kind": "IND",
  "chain": null,
  "ccaa": "Galicia",
  "province": "A Coruña",
  "address": "Ronda de Nelle 120, A Coruña",
  "phone": null,
  "web": null,
  "email": null,
  "notes": null,
  "lat": 43.362359,
  "lon": -8.41646,
  "geo_quality": "address"
 },
 {
  "name": "Goblin Trader A Coruña",
  "kind": "IND",
  "chain": "Goblin Trader",
  "ccaa": "Galicia",
  "province": "A Coruña",
  "address": "C/ Alcalde Lens 20, 15010 A Coruña",
  "phone": "981 32 33 26",
  "web": null,
  "email": "gtsacoruna@goblintrader.es",
  "notes": null,
  "lat": 43.360678,
  "lon": -8.419347,
  "geo_quality": "address"
 },
 {
  "name": "Kame House",
  "kind": "IND",
  "chain": null,
  "ccaa": "Galicia",
  "province": "A Coruña",
  "address": "C/ Cruz de San Pedro 11, 15703 Santiago de Compostela",
  "phone": null,
  "web": null,
  "email": null,
  "notes": null,
  "lat": 42.88337,
  "lon": -8.53319,
  "geo_quality": "address"
 },
 {
  "name": "La Fortaleza",
  "kind": "IND",
  "chain": null,
  "ccaa": "Galicia",
  "province": "A Coruña",
  "address": "Av. Concordia 4 bajo dcha., A Coruña",
  "phone": null,
  "web": null,
  "email": null,
  "notes": "IG: @fortaleza_miniaturas · Wargames y mesas de juego",
  "lat": 43.346645,
  "lon": -8.412703,
  "geo_quality": "city"
 },
 {
  "name": "Metropolis Comics",
  "kind": "IND",
  "chain": null,
  "ccaa": "Galicia",
  "province": "A Coruña",
  "address": "C/ Río Monelos 16 bajos dcha., A Coruña",
  "phone": null,
  "web": "metropoliscomics.net",
  "email": null,
  "notes": null,
  "lat": 43.346645,
  "lon": -8.412703,
  "geo_quality": "city"
 },
 {
  "name": "Metropolis Ferrol",
  "kind": "IND",
  "chain": null,
  "ccaa": "Galicia",
  "province": "A Coruña",
  "address": "C/ María 183 bajo, 15402 Ferrol",
  "phone": null,
  "web": null,
  "email": null,
  "notes": null,
  "lat": 43.484194,
  "lon": -8.23423,
  "geo_quality": "address"
 },
 {
  "name": "Bandua Wargames",
  "kind": "IND",
  "chain": null,
  "ccaa": "Galicia",
  "province": "Lugo",
  "address": "Av. de A Coruña 490, 27003 Lugo",
  "phone": null,
  "web": "banduawargames.com",
  "email": null,
  "notes": "Especialista wargames y escenografía propia",
  "lat": 43.032127,
  "lon": -7.572523,
  "geo_quality": "address"
 },
 {
  "name": "Librería Paz",
  "kind": "IND",
  "chain": null,
  "ccaa": "Galicia",
  "province": "Pontevedra",
  "address": "C/ Peregrina 29, Pontevedra",
  "phone": null,
  "web": null,
  "email": null,
  "notes": null,
  "lat": 42.429686,
  "lon": -8.643184,
  "geo_quality": "address"
 },
 {
  "name": "Norma Comics Vigo",
  "kind": "IND",
  "chain": "Norma Cómics",
  "ccaa": "Galicia",
  "province": "Pontevedra",
  "address": "Rda. de Don Bosco 22, 36202 Vigo",
  "phone": null,
  "web": null,
  "email": null,
  "notes": null,
  "lat": 42.235009,
  "lon": -8.723117,
  "geo_quality": "address"
 },
 {
  "name": "Warhammer – Palma",
  "kind": "GW",
  "chain": null,
  "ccaa": "Islas Baleares",
  "province": "Islas Baleares",
  "address": "C/ Sant Joan de la Salle 2, 07003 Palma de Mallorca",
  "phone": "+34 971 71 88 32",
  "web": null,
  "email": "palma@gwplc.com (patrón)",
  "notes": null,
  "lat": 39.576715,
  "lon": 2.649501,
  "geo_quality": "address"
 },
 {
  "name": "Goblin Trader Mallorca",
  "kind": "IND",
  "chain": "Goblin Trader",
  "ccaa": "Islas Baleares",
  "province": "Islas Baleares",
  "address": "C/ Rosselló i Caçador 7, 07004 Palma de Mallorca",
  "phone": "971 405 187",
  "web": null,
  "email": "gtsmallorca@goblintrader.es",
  "notes": "Mesas, eventos",
  "lat": 39.582372,
  "lon": 2.656229,
  "geo_quality": "address"
 },
 {
  "name": "Juguetería Tur",
  "kind": "IND",
  "chain": null,
  "ccaa": "Islas Baleares",
  "province": "Islas Baleares",
  "address": "C/ Obispo Huix 5, 07800 Ibiza",
  "phone": null,
  "web": null,
  "email": null,
  "notes": null,
  "lat": 38.913687,
  "lon": 1.419397,
  "geo_quality": "address"
 },
 {
  "name": "El Bastión del Sur",
  "kind": "IND",
  "chain": null,
  "ccaa": "Islas Canarias",
  "province": "Las Palmas",
  "address": "Sur de Gran Canaria",
  "phone": null,
  "web": "elbastiondelsur.com",
  "email": null,
  "notes": "Distribuye toda la gama GW",
  "lat": 28.095105,
  "lon": -15.414463,
  "geo_quality": "address"
 },
 {
  "name": "El Kraken",
  "kind": "IND",
  "chain": null,
  "ccaa": "Islas Canarias",
  "province": "Las Palmas",
  "address": "Pº Tomás Morales 69 bajos, 35004 Las Palmas de GC",
  "phone": null,
  "web": null,
  "email": null,
  "notes": null,
  "lat": 28.116705,
  "lon": -15.423228,
  "geo_quality": "address"
 },
 {
  "name": "Freakworld – CC Las Arenas",
  "kind": "IND",
  "chain": null,
  "ccaa": "Islas Canarias",
  "province": "Las Palmas",
  "address": "Ctra. del Rincón s/n, 35010 Las Palmas de Gran Canaria",
  "phone": "928 291 385",
  "web": null,
  "email": null,
  "notes": null,
  "lat": 28.123135,
  "lon": -15.451772,
  "geo_quality": "address"
 },
 {
  "name": "Freakworld – Telde",
  "kind": "IND",
  "chain": null,
  "ccaa": "Islas Canarias",
  "province": "Las Palmas",
  "address": "Avda. Rambla Pedro Lezcano Montalvo 4, San Gregorio, 35200 Telde",
  "phone": "613 197 110",
  "web": null,
  "email": null,
  "notes": null,
  "lat": 27.997911,
  "lon": -15.413684,
  "geo_quality": "address"
 },
 {
  "name": "Freakworld – Triana",
  "kind": "IND",
  "chain": null,
  "ccaa": "Islas Canarias",
  "province": "Las Palmas",
  "address": "C/ Clavel 8, 35002 Las Palmas de GC",
  "phone": "676 325 793",
  "web": null,
  "email": null,
  "notes": null,
  "lat": 28.104893,
  "lon": -15.415268,
  "geo_quality": "address"
 },
 {
  "name": "La Comarca Games",
  "kind": "IND",
  "chain": null,
  "ccaa": "Islas Canarias",
  "province": "Las Palmas",
  "address": "C/ Lomo La Plana 35 bajo izq., Las Palmas de GC",
  "phone": null,
  "web": null,
  "email": null,
  "notes": null,
  "lat": 28.128869,
  "lon": -15.434902,
  "geo_quality": "city"
 },
 {
  "name": "La Fortaleza",
  "kind": "IND",
  "chain": null,
  "ccaa": "Islas Canarias",
  "province": "Las Palmas",
  "address": "Telde (Gran Canaria)",
  "phone": null,
  "web": null,
  "email": null,
  "notes": null,
  "lat": 27.998454,
  "lon": -15.416676,
  "geo_quality": "address"
 },
 {
  "name": "Multy and Hobby",
  "kind": "IND",
  "chain": null,
  "ccaa": "Islas Canarias",
  "province": "Las Palmas",
  "address": "CC La Ballena, Ctra. del Norte 112, Las Palmas de GC",
  "phone": null,
  "web": null,
  "email": null,
  "notes": null,
  "lat": 28.128869,
  "lon": -15.434902,
  "geo_quality": "city"
 },
 {
  "name": "Cómics y Mazmorras",
  "kind": "IND",
  "chain": null,
  "ccaa": "Islas Canarias",
  "province": "Santa Cruz de Tenerife",
  "address": "C/ Ramón y Cajal 11 bajo izq., 38004 Santa Cruz de Tenerife",
  "phone": null,
  "web": null,
  "email": null,
  "notes": "Tienda referente de Canarias",
  "lat": 28.470889,
  "lon": -16.260666,
  "geo_quality": "address"
 },
 {
  "name": "El Animago Azul",
  "kind": "IND",
  "chain": null,
  "ccaa": "Islas Canarias",
  "province": "Santa Cruz de Tenerife",
  "address": "Sur de Tenerife (consulta web)",
  "phone": null,
  "web": null,
  "email": null,
  "notes": null,
  "lat": 28.455262,
  "lon": -16.279149,
  "geo_quality": "address"
 },
 {
  "name": "La Era Friki",
  "kind": "IND",
  "chain": null,
  "ccaa": "Islas Canarias",
  "province": "Santa Cruz de Tenerife",
  "address": "Santa Cruz de Tenerife",
  "phone": null,
  "web": null,
  "email": null,
  "notes": "Cultura pop, merchandising",
  "lat": 28.467178,
  "lon": -16.250784,
  "geo_quality": "address"
 },
 {
  "name": "Imperium",
  "kind": "IND",
  "chain": null,
  "ccaa": "La Rioja",
  "province": "La Rioja",
  "address": "Logroño (organiza Liga Warhammer Fantasy MDN; consulta dirección actual)",
  "phone": null,
  "web": null,
  "email": null,
  "notes": null,
  "lat": 42.46612,
  "lon": -2.439668,
  "geo_quality": "address"
 },
 {
  "name": "Juguetecas Logroño",
  "kind": "IND",
  "chain": null,
  "ccaa": "La Rioja",
  "province": "La Rioja",
  "address": "C/ Lérida 2, CC Berceo, Logroño",
  "phone": null,
  "web": null,
  "email": null,
  "notes": null,
  "lat": 42.281464,
  "lon": -2.482805,
  "geo_quality": "city"
 },
 {
  "name": "Moria",
  "kind": "IND",
  "chain": null,
  "ccaa": "La Rioja",
  "province": "La Rioja",
  "address": "C/ Tirso de Molina 10, 26006 Logroño",
  "phone": null,
  "web": null,
  "email": null,
  "notes": null,
  "lat": 42.458271,
  "lon": -2.427548,
  "geo_quality": "address"
 },
 {
  "name": "Warhammer – Bilbao",
  "kind": "GW",
  "chain": null,
  "ccaa": "País Vasco",
  "province": "País Vasco",
  "address": "C/ Pérez Galdós 3, 48010 Bilbao",
  "phone": "+34 944 44 31 08",
  "web": null,
  "email": null,
  "notes": "FB: /WarhammerBilbao",
  "lat": 43.258651,
  "lon": -2.940985,
  "geo_quality": "address"
 },
 {
  "name": "Bilbo Games",
  "kind": "IND",
  "chain": null,
  "ccaa": "País Vasco",
  "province": "País Vasco",
  "address": "Alameda de Urquijo 27, 48008 Bilbao",
  "phone": null,
  "web": null,
  "email": null,
  "notes": null,
  "lat": 43.260126,
  "lon": -2.932398,
  "geo_quality": "address"
 },
 {
  "name": "Distrito Zero (Bilbao)",
  "kind": "IND",
  "chain": "Distrito Zero",
  "ccaa": "País Vasco",
  "province": "País Vasco",
  "address": "Agirre Lehendakariaren Etorb. 186, 48015 Bilbao",
  "phone": "656 58 99 29",
  "web": null,
  "email": null,
  "notes": "bilbao@distritozero.es",
  "lat": 43.283922,
  "lon": -2.965817,
  "geo_quality": "address"
 },
 {
  "name": "Generación X Donostia",
  "kind": "IND",
  "chain": "Generación X",
  "ccaa": "País Vasco",
  "province": "País Vasco",
  "address": "C/ Pedro Egaña 6, Donostia-San Sebastián",
  "phone": null,
  "web": null,
  "email": null,
  "notes": null,
  "lat": 43.313642,
  "lon": -1.980981,
  "geo_quality": "address"
 },
 {
  "name": "Librería Mayner",
  "kind": "IND",
  "chain": null,
  "ccaa": "País Vasco",
  "province": "País Vasco",
  "address": "Plaza de la Provincia 12, 01001 Vitoria-Gasteiz",
  "phone": null,
  "web": null,
  "email": null,
  "notes": null,
  "lat": 42.847822,
  "lon": -2.674877,
  "geo_quality": "address"
 },
 {
  "name": "Librería Ronin",
  "kind": "IND",
  "chain": null,
  "ccaa": "País Vasco",
  "province": "País Vasco",
  "address": "C/ Pintor Jesús Apellániz 3 bajo, Vitoria-Gasteiz",
  "phone": null,
  "web": null,
  "email": null,
  "notes": null,
  "lat": 42.847189,
  "lon": -2.68524,
  "geo_quality": "address"
 },
 {
  "name": "Mister Model",
  "kind": "IND",
  "chain": null,
  "ccaa": "País Vasco",
  "province": "País Vasco",
  "address": "C/ Gobela 15B, Las Arenas (Getxo, Bizkaia)",
  "phone": null,
  "web": null,
  "email": null,
  "notes": null,
  "lat": 42.991182,
  "lon": -2.554302,
  "geo_quality": "city"
 },
 {
  "name": "Peters Land",
  "kind": "IND",
  "chain": null,
  "ccaa": "País Vasco",
  "province": "País Vasco",
  "address": "C/ Juan de Garay 5, Bilbao",
  "phone": null,
  "web": null,
  "email": null,
  "notes": null,
  "lat": 42.991182,
  "lon": -2.554302,
  "geo_quality": "city"
 },
 {
  "name": "Asturhobby",
  "kind": "IND",
  "chain": null,
  "ccaa": "Principado de Asturias",
  "province": "Principado de Asturias",
  "address": "C/ Pedro Menéndez 6 bajo, Avilés",
  "phone": null,
  "web": null,
  "email": null,
  "notes": null,
  "lat": 43.558495,
  "lon": -5.923847,
  "geo_quality": "address"
 },
 {
  "name": "Capua Hobby's",
  "kind": "IND",
  "chain": null,
  "ccaa": "Principado de Asturias",
  "province": "Principado de Asturias",
  "address": "C/ Marqués de Valdés 55, 33204 Gijón",
  "phone": null,
  "web": null,
  "email": null,
  "notes": "Tienda histórica con sección Warhammer y rol",
  "lat": 43.531499,
  "lon": -5.649018,
  "geo_quality": "address"
 },
 {
  "name": "Enclave de Juego",
  "kind": "IND",
  "chain": null,
  "ccaa": "Principado de Asturias",
  "province": "Principado de Asturias",
  "address": "*(asociación-tienda)* — C. Arturo Álvarez Buylla 3, 33005 Oviedo",
  "phone": null,
  "web": null,
  "email": null,
  "notes": "Mesas para wargames, torneos AoS/40k/Warcry",
  "lat": 43.359307,
  "lon": -5.859187,
  "geo_quality": "address"
 },
 {
  "name": "Hangar Rebelde",
  "kind": "IND",
  "chain": null,
  "ccaa": "Principado de Asturias",
  "province": "Principado de Asturias",
  "address": "Oviedo (rol/wargames; ver web/RRSS)",
  "phone": null,
  "web": null,
  "email": null,
  "notes": null,
  "lat": 43.353345,
  "lon": -5.87951,
  "geo_quality": "address"
 },
 {
  "name": "Identidad Secreta",
  "kind": "IND",
  "chain": null,
  "ccaa": "Principado de Asturias",
  "province": "Principado de Asturias",
  "address": "Gijón (cómics, juegos de mesa, cafetería; consulta dirección actual en RRSS)",
  "phone": null,
  "web": null,
  "email": null,
  "notes": null,
  "lat": 43.544942,
  "lon": -5.66275,
  "geo_quality": "address"
 },
 {
  "name": "Juguetecas 01",
  "kind": "IND",
  "chain": null,
  "ccaa": "Principado de Asturias",
  "province": "Principado de Asturias",
  "address": "C/ Lila 12, 33002 Oviedo",
  "phone": null,
  "web": null,
  "email": null,
  "notes": null,
  "lat": 43.365811,
  "lon": -5.847413,
  "geo_quality": "address"
 },
 {
  "name": "Ravnica Games",
  "kind": "IND",
  "chain": null,
  "ccaa": "Principado de Asturias",
  "province": "Principado de Asturias",
  "address": "Av. de Portugal 30, 33207 Gijón",
  "phone": null,
  "web": "gobboravnica.es",
  "email": null,
  "notes": "Wargames/TCG",
  "lat": 43.538421,
  "lon": -5.670001,
  "geo_quality": "address"
 },
 {
  "name": "Videoclub Cisne",
  "kind": "IND",
  "chain": null,
  "ccaa": "Principado de Asturias",
  "province": "Principado de Asturias",
  "address": "Travesía de la Vidriera 14, Avilés",
  "phone": null,
  "web": null,
  "email": null,
  "notes": null,
  "lat": 43.313387,
  "lon": -5.94192,
  "geo_quality": "city"
 },
 {
  "name": "Hobby Modelismo",
  "kind": "IND",
  "chain": null,
  "ccaa": "Región de Murcia",
  "province": "Región de Murcia",
  "address": "C/ Junterones 6, 30001 Murcia",
  "phone": null,
  "web": null,
  "email": null,
  "notes": null,
  "lat": 37.990891,
  "lon": -1.131521,
  "geo_quality": "address"
 },
 {
  "name": "Juguet Warhammer",
  "kind": "IND",
  "chain": null,
  "ccaa": "Región de Murcia",
  "province": "Región de Murcia",
  "address": "C/ González Adalid, 30001 Murcia",
  "phone": "968 06 19 77",
  "web": null,
  "email": null,
  "notes": "L-V 10:30-14:00 y 17:00-20:30",
  "lat": 37.986034,
  "lon": -1.129739,
  "geo_quality": "address"
 },
 {
  "name": "Multiverso War",
  "kind": "IND",
  "chain": null,
  "ccaa": "Región de Murcia",
  "province": "Región de Murcia",
  "address": "Murcia (consulta web multiversowar.com)",
  "phone": null,
  "web": null,
  "email": null,
  "notes": null,
  "lat": 37.934752,
  "lon": -1.113103,
  "geo_quality": "address"
 },
 {
  "name": "Shinobi Online",
  "kind": "IND",
  "chain": null,
  "ccaa": "Región de Murcia",
  "province": "Región de Murcia",
  "address": "C/ Mayor 88, 30820 Alcantarilla",
  "phone": "968 02 44 43",
  "web": "shinobi.es",
  "email": null,
  "notes": null,
  "lat": 37.966326,
  "lon": -1.219329,
  "geo_quality": "address"
 }
]